[
 {
  "Id": 257,
  "Name": "Athens",
  "lat": 37.9842,
  "lng": 23.7281,
  "CountryId": 2
 },
 {
  "Id": 258,
  "Name": "Thessaloníki",
  "lat": 40.6403,
  "lng": 22.9347,
  "CountryId": 2
 },
 {
  "Id": 259,
  "Name": "Piraeus",
  "lat": 37.943,
  "lng": 23.6469,
  "CountryId": 2
 },
 {
  "Id": 260,
  "Name": "Irákleio",
  "lat": 35.3403,
  "lng": 25.1344,
  "CountryId": 2
 },
 {
  "Id": 261,
  "Name": "Pátra",
  "lat": 38.25,
  "lng": 21.7333,
  "CountryId": 2
 },
 {
  "Id": 262,
  "Name": "Lárisa",
  "lat": 39.6417,
  "lng": 22.4167,
  "CountryId": 2
 },
 {
  "Id": 263,
  "Name": "Vólos",
  "lat": 39.3667,
  "lng": 22.9333,
  "CountryId": 2
 },
 {
  "Id": 264,
  "Name": "Peristéri",
  "lat": 38.0167,
  "lng": 23.6833,
  "CountryId": 2
 },
 {
  "Id": 265,
  "Name": "Ioánnina",
  "lat": 39.6636,
  "lng": 20.8522,
  "CountryId": 2
 },
 {
  "Id": 266,
  "Name": "Acharnés",
  "lat": 38.0833,
  "lng": 23.7333,
  "CountryId": 2
 },
 {
  "Id": 267,
  "Name": "Kallithéa",
  "lat": 37.95,
  "lng": 23.7,
  "CountryId": 2
 },
 {
  "Id": 268,
  "Name": "Kalamariá",
  "lat": 40.5833,
  "lng": 22.95,
  "CountryId": 2
 },
 {
  "Id": 269,
  "Name": "Níkaia",
  "lat": 37.9667,
  "lng": 23.6333,
  "CountryId": 2
 },
 {
  "Id": 270,
  "Name": "Glyfáda",
  "lat": 37.8667,
  "lng": 23.75,
  "CountryId": 2
 },
 {
  "Id": 271,
  "Name": "Ílion",
  "lat": 38.0333,
  "lng": 23.7,
  "CountryId": 2
 },
 {
  "Id": 272,
  "Name": "Ilioúpoli",
  "lat": 37.9333,
  "lng": 23.75,
  "CountryId": 2
 },
 {
  "Id": 273,
  "Name": "Keratsíni",
  "lat": 37.9667,
  "lng": 23.6167,
  "CountryId": 2
 },
 {
  "Id": 274,
  "Name": "Évosmos",
  "lat": 40.6689,
  "lng": 22.9083,
  "CountryId": 2
 },
 {
  "Id": 275,
  "Name": "Chalándri",
  "lat": 38.0167,
  "lng": 23.8,
  "CountryId": 2
 },
 {
  "Id": 276,
  "Name": "Néa Smýrni",
  "lat": 37.95,
  "lng": 23.7167,
  "CountryId": 2
 },
 {
  "Id": 277,
  "Name": "Maroúsi",
  "lat": 38.05,
  "lng": 23.8,
  "CountryId": 2
 },
 {
  "Id": 278,
  "Name": "Ágios Dimítrios",
  "lat": 37.9333,
  "lng": 23.7333,
  "CountryId": 2
 },
 {
  "Id": 279,
  "Name": "Zográfos",
  "lat": 37.9783,
  "lng": 23.7717,
  "CountryId": 2
 },
 {
  "Id": 280,
  "Name": "Aigáleo",
  "lat": 37.992,
  "lng": 23.678,
  "CountryId": 2
 },
 {
  "Id": 281,
  "Name": "Kozáni",
  "lat": 40.3,
  "lng": 21.7833,
  "CountryId": 2
 },
 {
  "Id": 282,
  "Name": "Néa Ionía",
  "lat": 38.0333,
  "lng": 23.75,
  "CountryId": 2
 },
 {
  "Id": 283,
  "Name": "Kavála",
  "lat": 40.9333,
  "lng": 24.4,
  "CountryId": 2
 },
 {
  "Id": 284,
  "Name": "Palaió Fáliro",
  "lat": 37.9333,
  "lng": 23.7,
  "CountryId": 2
 },
 {
  "Id": 285,
  "Name": "Korydallós",
  "lat": 37.9833,
  "lng": 23.65,
  "CountryId": 2
 },
 {
  "Id": 286,
  "Name": "Agía Paraskeví",
  "lat": 38.0117,
  "lng": 23.82,
  "CountryId": 2
 },
 {
  "Id": 287,
  "Name": "Výronas",
  "lat": 37.9617,
  "lng": 23.7533,
  "CountryId": 2
 },
 {
  "Id": 288,
  "Name": "Galátsi",
  "lat": 38.0167,
  "lng": 23.75,
  "CountryId": 2
 },
 {
  "Id": 289,
  "Name": "Chalkída",
  "lat": 38.4625,
  "lng": 23.595,
  "CountryId": 2
 },
 {
  "Id": 290,
  "Name": "Petroúpoli",
  "lat": 38.0333,
  "lng": 23.6833,
  "CountryId": 2
 },
 {
  "Id": 291,
  "Name": "Ródos",
  "lat": 36.4412,
  "lng": 28.2225,
  "CountryId": 2
 },
 {
  "Id": 292,
  "Name": "Pallíni",
  "lat": 38,
  "lng": 23.8833,
  "CountryId": 2
 },
 {
  "Id": 293,
  "Name": "Chaniá",
  "lat": 35.5167,
  "lng": 24.0167,
  "CountryId": 2
 },
 {
  "Id": 294,
  "Name": "Thérmi",
  "lat": 40.55,
  "lng": 23.0167,
  "CountryId": 2
 },
 {
  "Id": 295,
  "Name": "Kalamáta",
  "lat": 37.0378,
  "lng": 22.1111,
  "CountryId": 2
 },
 {
  "Id": 296,
  "Name": "Lamía",
  "lat": 38.9,
  "lng": 22.4333,
  "CountryId": 2
 },
 {
  "Id": 297,
  "Name": "Komotiní",
  "lat": 41.1,
  "lng": 25.4167,
  "CountryId": 2
 },
 {
  "Id": 298,
  "Name": "Irákleio",
  "lat": 38.05,
  "lng": 23.7667,
  "CountryId": 2
 },
 {
  "Id": 299,
  "Name": "Kifisiá",
  "lat": 38.0833,
  "lng": 23.8167,
  "CountryId": 2
 },
 {
  "Id": 300,
  "Name": "Stavroúpoli",
  "lat": 40.6667,
  "lng": 22.9333,
  "CountryId": 2
 },
 {
  "Id": 301,
  "Name": "Chaïdári",
  "lat": 38.0167,
  "lng": 23.65,
  "CountryId": 2
 },
 {
  "Id": 302,
  "Name": "Álimos",
  "lat": 37.9167,
  "lng": 23.7167,
  "CountryId": 2
 },
 {
  "Id": 303,
  "Name": "Oraiókastro",
  "lat": 40.7333,
  "lng": 22.9167,
  "CountryId": 2
 },
 {
  "Id": 304,
  "Name": "Sykiés",
  "lat": 40.65,
  "lng": 22.95,
  "CountryId": 2
 },
 {
  "Id": 305,
  "Name": "Ampelókipoi",
  "lat": 40.65,
  "lng": 22.9167,
  "CountryId": 2
 },
 {
  "Id": 306,
  "Name": "Pylaía",
  "lat": 40.6,
  "lng": 22.9833,
  "CountryId": 2
 },
 {
  "Id": 307,
  "Name": "Ágioi Anárgyroi",
  "lat": 38.0267,
  "lng": 23.7183,
  "CountryId": 2
 },
 {
  "Id": 308,
  "Name": "Argyroúpoli",
  "lat": 37.9,
  "lng": 23.75,
  "CountryId": 2
 },
 {
  "Id": 309,
  "Name": "Áno Liósia",
  "lat": 38.0833,
  "lng": 23.7,
  "CountryId": 2
 },
 {
  "Id": 310,
  "Name": "Ptolemaḯda",
  "lat": 40.5167,
  "lng": 21.6833,
  "CountryId": 2
 },
 {
  "Id": 311,
  "Name": "Salamína",
  "lat": 37.9667,
  "lng": 23.5,
  "CountryId": 2
 },
 {
  "Id": 312,
  "Name": "Trípoli",
  "lat": 37.5167,
  "lng": 22.3833,
  "CountryId": 2
 },
 {
  "Id": 313,
  "Name": "Cholargós",
  "lat": 38,
  "lng": 23.8,
  "CountryId": 2
 },
 {
  "Id": 314,
  "Name": "Vrilíssia",
  "lat": 38.0333,
  "lng": 23.8333,
  "CountryId": 2
 },
 {
  "Id": 315,
  "Name": "Asprópyrgos",
  "lat": 38.0667,
  "lng": 23.5833,
  "CountryId": 2
 },
 {
  "Id": 316,
  "Name": "Kórinthos",
  "lat": 37.9386,
  "lng": 22.9272,
  "CountryId": 2
 },
 {
  "Id": 317,
  "Name": "Gérakas",
  "lat": 38.0333,
  "lng": 23.85,
  "CountryId": 2
 },
 {
  "Id": 318,
  "Name": "Metamórfosi",
  "lat": 38.05,
  "lng": 23.75,
  "CountryId": 2
 },
 {
  "Id": 319,
  "Name": "Giannitsá",
  "lat": 40.7833,
  "lng": 22.4,
  "CountryId": 2
 },
 {
  "Id": 320,
  "Name": "Amaliáda",
  "lat": 37.8,
  "lng": 21.35,
  "CountryId": 2
 },
 {
  "Id": 321,
  "Name": "Voúla",
  "lat": 37.85,
  "lng": 23.75,
  "CountryId": 2
 },
 {
  "Id": 322,
  "Name": "Kamateró",
  "lat": 38.0597,
  "lng": 23.712,
  "CountryId": 2
 },
 {
  "Id": 323,
  "Name": "Mytilíni",
  "lat": 39.1,
  "lng": 26.55,
  "CountryId": 2
 },
 {
  "Id": 324,
  "Name": "Ágios Nikólaos",
  "lat": 35.1833,
  "lng": 25.7167,
  "CountryId": 2
 },
 {
  "Id": 325,
  "Name": "Chíos",
  "lat": 38.3725,
  "lng": 26.1375,
  "CountryId": 2
 },
 {
  "Id": 326,
  "Name": "Paianía",
  "lat": 37.95,
  "lng": 23.85,
  "CountryId": 2
 },
 {
  "Id": 327,
  "Name": "Agía Varvára",
  "lat": 38,
  "lng": 23.65,
  "CountryId": 2
 },
 {
  "Id": 328,
  "Name": "Kaisarianí",
  "lat": 37.9683,
  "lng": 23.7583,
  "CountryId": 2
 },
 {
  "Id": 329,
  "Name": "Grevená",
  "lat": 40.085,
  "lng": 21.4275,
  "CountryId": 2
 },
 {
  "Id": 330,
  "Name": "Néa Filadélfeia",
  "lat": 38.0367,
  "lng": 23.7367,
  "CountryId": 2
 },
 {
  "Id": 331,
  "Name": "Moscháto",
  "lat": 37.95,
  "lng": 23.6667,
  "CountryId": 2
 },
 {
  "Id": 332,
  "Name": "Pérama",
  "lat": 37.9667,
  "lng": 23.5667,
  "CountryId": 2
 },
 {
  "Id": 333,
  "Name": "Elefsína",
  "lat": 38.0333,
  "lng": 23.5333,
  "CountryId": 2
 },
 {
  "Id": 334,
  "Name": "Kérkyra",
  "lat": 39.6239,
  "lng": 19.9214,
  "CountryId": 2
 },
 {
  "Id": 335,
  "Name": "Pýrgos",
  "lat": 37.6667,
  "lng": 21.4333,
  "CountryId": 2
 },
 {
  "Id": 336,
  "Name": "Kilkís",
  "lat": 40.9833,
  "lng": 22.8667,
  "CountryId": 2
 },
 {
  "Id": 337,
  "Name": "Dáfni",
  "lat": 37.95,
  "lng": 23.7333,
  "CountryId": 2
 },
 {
  "Id": 338,
  "Name": "Melíssia",
  "lat": 38.05,
  "lng": 23.8333,
  "CountryId": 2
 },
 {
  "Id": 339,
  "Name": "Árgos",
  "lat": 37.6167,
  "lng": 22.7167,
  "CountryId": 2
 },
 {
  "Id": 340,
  "Name": "Árta",
  "lat": 39.165,
  "lng": 20.9875,
  "CountryId": 2
 },
 {
  "Id": 341,
  "Name": "Artémida",
  "lat": 37.9667,
  "lng": 24,
  "CountryId": 2
 },
 {
  "Id": 342,
  "Name": "Péfki",
  "lat": 38.0667,
  "lng": 23.8,
  "CountryId": 2
 },
 {
  "Id": 343,
  "Name": "Aígio",
  "lat": 38.25,
  "lng": 22.0833,
  "CountryId": 2
 },
 {
  "Id": 344,
  "Name": "Gázi",
  "lat": 35.325,
  "lng": 25.0667,
  "CountryId": 2
 },
 {
  "Id": 345,
  "Name": "Koropí",
  "lat": 37.9,
  "lng": 23.8733,
  "CountryId": 2
 },
 {
  "Id": 346,
  "Name": "Peraía",
  "lat": 40.5,
  "lng": 22.925,
  "CountryId": 2
 },
 {
  "Id": 347,
  "Name": "Orestiáda",
  "lat": 41.5,
  "lng": 26.5333,
  "CountryId": 2
 },
 {
  "Id": 348,
  "Name": "Édessa",
  "lat": 40.8,
  "lng": 22.05,
  "CountryId": 2
 },
 {
  "Id": 349,
  "Name": "Flórina",
  "lat": 40.7833,
  "lng": 21.4,
  "CountryId": 2
 },
 {
  "Id": 350,
  "Name": "Panórama",
  "lat": 40.5833,
  "lng": 23.0333,
  "CountryId": 2
 },
 {
  "Id": 351,
  "Name": "Néa Erythraía",
  "lat": 38.0833,
  "lng": 23.8167,
  "CountryId": 2
 },
 {
  "Id": 352,
  "Name": "Ellinikó",
  "lat": 37.8667,
  "lng": 23.7333,
  "CountryId": 2
 },
 {
  "Id": 353,
  "Name": "Néa Mákri",
  "lat": 38.0833,
  "lng": 23.9833,
  "CountryId": 2
 },
 {
  "Id": 354,
  "Name": "Spárti",
  "lat": 37.0739,
  "lng": 22.4294,
  "CountryId": 2
 },
 {
  "Id": 355,
  "Name": "Ágios Ioánnis Réntis",
  "lat": 37.9667,
  "lng": 23.6667,
  "CountryId": 2
 },
 {
  "Id": 356,
  "Name": "Vári",
  "lat": 37.8333,
  "lng": 23.8,
  "CountryId": 2
 },
 {
  "Id": 357,
  "Name": "Távros",
  "lat": 37.9667,
  "lng": 23.695,
  "CountryId": 2
 },
 {
  "Id": 358,
  "Name": "Alexándreia",
  "lat": 40.6333,
  "lng": 22.45,
  "CountryId": 2
 },
 {
  "Id": 359,
  "Name": "Néa Alikarnassós",
  "lat": 35.3167,
  "lng": 25.1833,
  "CountryId": 2
 },
 {
  "Id": 360,
  "Name": "Kalývia Thorikoú",
  "lat": 37.8333,
  "lng": 23.9167,
  "CountryId": 2
 },
 {
  "Id": 361,
  "Name": "Náfplio",
  "lat": 37.5667,
  "lng": 22.8,
  "CountryId": 2
 },
 {
  "Id": 362,
  "Name": "Drapetsóna",
  "lat": 37.9467,
  "lng": 23.625,
  "CountryId": 2
 },
 {
  "Id": 363,
  "Name": "Efkarpía",
  "lat": 40.6833,
  "lng": 22.95,
  "CountryId": 2
 },
 {
  "Id": 364,
  "Name": "Ermoúpoli",
  "lat": 37.4333,
  "lng": 24.9167,
  "CountryId": 2
 },
 {
  "Id": 365,
  "Name": "Papágos",
  "lat": 37.99,
  "lng": 23.7933,
  "CountryId": 2
 },
 {
  "Id": 366,
  "Name": "Náfpaktos",
  "lat": 38.3939,
  "lng": 21.8306,
  "CountryId": 2
 },
 {
  "Id": 367,
  "Name": "Kastoriá",
  "lat": 40.5167,
  "lng": 21.2667,
  "CountryId": 2
 },
 {
  "Id": 368,
  "Name": "Péfka",
  "lat": 40.65,
  "lng": 22.9833,
  "CountryId": 2
 },
 {
  "Id": 369,
  "Name": "Ierápetra",
  "lat": 35,
  "lng": 25.7333,
  "CountryId": 2
 },
 {
  "Id": 370,
  "Name": "Rafína",
  "lat": 38.0167,
  "lng": 24,
  "CountryId": 2
 },
 {
  "Id": 371,
  "Name": "Ialysós",
  "lat": 36.4167,
  "lng": 28.15,
  "CountryId": 2
 },
 {
  "Id": 372,
  "Name": "Týrnavos",
  "lat": 39.7333,
  "lng": 22.2833,
  "CountryId": 2
 },
 {
  "Id": 373,
  "Name": "Glyká Nerá",
  "lat": 37.9917,
  "lng": 23.8483,
  "CountryId": 2
 },
 {
  "Id": 374,
  "Name": "Ymittós",
  "lat": 37.95,
  "lng": 23.7333,
  "CountryId": 2
 },
 {
  "Id": 375,
  "Name": "Néo Psychikó",
  "lat": 38,
  "lng": 23.7833,
  "CountryId": 2
 },
 {
  "Id": 376,
  "Name": "Diavatá",
  "lat": 40.6883,
  "lng": 22.8583,
  "CountryId": 2
 },
 {
  "Id": 377,
  "Name": "Kiáto",
  "lat": 38.0102,
  "lng": 22.7493,
  "CountryId": 2
 },
 {
  "Id": 378,
  "Name": "Anatolí",
  "lat": 39.6386,
  "lng": 20.8661,
  "CountryId": 2
 },
 {
  "Id": 379,
  "Name": "Lykóvrysi",
  "lat": 38.0667,
  "lng": 23.7833,
  "CountryId": 2
 },
 {
  "Id": 380,
  "Name": "Pórto Ráfti",
  "lat": 37.8844,
  "lng": 24.0125,
  "CountryId": 2
 },
 {
  "Id": 381,
  "Name": "Psychikó",
  "lat": 38.0108,
  "lng": 23.7727,
  "CountryId": 2
 },
 {
  "Id": 382,
  "Name": "Néa Artáki",
  "lat": 38.5167,
  "lng": 23.6333,
  "CountryId": 2
 },
 {
  "Id": 383,
  "Name": "Zefýri",
  "lat": 38.0667,
  "lng": 23.7167,
  "CountryId": 2
 },
 {
  "Id": 384,
  "Name": "Néa Moudaniá",
  "lat": 40.2386,
  "lng": 23.2814,
  "CountryId": 2
 },
 {
  "Id": 385,
  "Name": "Fársala",
  "lat": 39.2833,
  "lng": 22.3833,
  "CountryId": 2
 },
 {
  "Id": 386,
  "Name": "Síndos",
  "lat": 40.6706,
  "lng": 22.8056,
  "CountryId": 2
 },
 {
  "Id": 387,
  "Name": "Vochaïkó",
  "lat": 37.9333,
  "lng": 22.8,
  "CountryId": 2
 },
 {
  "Id": 388,
  "Name": "Spáta",
  "lat": 37.9667,
  "lng": 23.9167,
  "CountryId": 2
 },
 {
  "Id": 389,
  "Name": "Chrysoúpoli",
  "lat": 40.9833,
  "lng": 24.7,
  "CountryId": 2
 },
 {
  "Id": 390,
  "Name": "Néa Michanióna",
  "lat": 40.4644,
  "lng": 22.8606,
  "CountryId": 2
 },
 {
  "Id": 391,
  "Name": "Néa Péramos",
  "lat": 38,
  "lng": 23.4167,
  "CountryId": 2
 },
 {
  "Id": 392,
  "Name": "Giánnouli",
  "lat": 39.6672,
  "lng": 22.3958,
  "CountryId": 2
 },
 {
  "Id": 393,
  "Name": "Lagkadás",
  "lat": 40.75,
  "lng": 23.0667,
  "CountryId": 2
 },
 {
  "Id": 394,
  "Name": "Mourniés",
  "lat": 35.485,
  "lng": 24.013,
  "CountryId": 2
 },
 {
  "Id": 395,
  "Name": "Néa Kallikráteia",
  "lat": 40.3139,
  "lng": 23.0633,
  "CountryId": 2
 },
 {
  "Id": 396,
  "Name": "Lávrio",
  "lat": 37.7144,
  "lng": 24.0565,
  "CountryId": 2
 },
 {
  "Id": 397,
  "Name": "Aígina",
  "lat": 37.7467,
  "lng": 23.4275,
  "CountryId": 2
 },
 {
  "Id": 398,
  "Name": "Néo Karlovási",
  "lat": 37.7917,
  "lng": 26.7051,
  "CountryId": 2
 },
 {
  "Id": 399,
  "Name": "Káto Achaḯa",
  "lat": 38.1418,
  "lng": 21.5518,
  "CountryId": 2
 },
 {
  "Id": 400,
  "Name": "Aridaía",
  "lat": 40.975,
  "lng": 22.0583,
  "CountryId": 2
 },
 {
  "Id": 401,
  "Name": "Soúda",
  "lat": 35.4833,
  "lng": 24.0667,
  "CountryId": 2
 },
 {
  "Id": 402,
  "Name": "Kounoupidianá",
  "lat": 35.536,
  "lng": 24.076,
  "CountryId": 2
 },
 {
  "Id": 403,
  "Name": "Anávyssos",
  "lat": 37.7333,
  "lng": 23.95,
  "CountryId": 2
 },
 {
  "Id": 404,
  "Name": "Messíni",
  "lat": 37.0513,
  "lng": 22.0087,
  "CountryId": 2
 },
 {
  "Id": 405,
  "Name": "Néoi Epivátes",
  "lat": 40.501,
  "lng": 22.909,
  "CountryId": 2
 },
 {
  "Id": 406,
  "Name": "Megalópoli",
  "lat": 37.4,
  "lng": 22.1333,
  "CountryId": 2
 },
 {
  "Id": 407,
  "Name": "Mýrina",
  "lat": 39.8782,
  "lng": 25.0636,
  "CountryId": 2
 },
 {
  "Id": 408,
  "Name": "Diónysos",
  "lat": 38.1,
  "lng": 23.8667,
  "CountryId": 2
 },
 {
  "Id": 409,
  "Name": "Nerokoúros",
  "lat": 35.4758,
  "lng": 24.0383,
  "CountryId": 2
 },
 {
  "Id": 410,
  "Name": "Xylókastro",
  "lat": 38.0667,
  "lng": 22.6333,
  "CountryId": 2
 },
 {
  "Id": 411,
  "Name": "Fílyro",
  "lat": 40.6911,
  "lng": 23.0042,
  "CountryId": 2
 },
 {
  "Id": 412,
  "Name": "Kremastí",
  "lat": 36.4105,
  "lng": 28.1191,
  "CountryId": 2
 },
 {
  "Id": 413,
  "Name": "Tympáki",
  "lat": 35.0719,
  "lng": 24.7683,
  "CountryId": 2
 },
 {
  "Id": 414,
  "Name": "Río",
  "lat": 38.3028,
  "lng": 21.7847,
  "CountryId": 2
 },
 {
  "Id": 415,
  "Name": "Krýa Vrýsi",
  "lat": 40.6875,
  "lng": 22.3053,
  "CountryId": 2
 },
 {
  "Id": 416,
  "Name": "Agriá",
  "lat": 39.34,
  "lng": 23.0133,
  "CountryId": 2
 },
 {
  "Id": 417,
  "Name": "Kyparissía",
  "lat": 37.2508,
  "lng": 21.6705,
  "CountryId": 2
 },
 {
  "Id": 418,
  "Name": "Kárystos",
  "lat": 38.0158,
  "lng": 24.4203,
  "CountryId": 2
 },
 {
  "Id": 419,
  "Name": "Alykés",
  "lat": 37.8333,
  "lng": 20.7667,
  "CountryId": 2
 },
 {
  "Id": 420,
  "Name": "Alivéri",
  "lat": 38.4083,
  "lng": 24.0417,
  "CountryId": 2
 },
 {
  "Id": 421,
  "Name": "Tínos",
  "lat": 37.5377,
  "lng": 25.1611,
  "CountryId": 2
 },
 {
  "Id": 422,
  "Name": "Magoúla",
  "lat": 38.0753,
  "lng": 23.524,
  "CountryId": 2
 },
 {
  "Id": 423,
  "Name": "Ampelákia",
  "lat": 37.95,
  "lng": 23.5167,
  "CountryId": 2
 },
 {
  "Id": 424,
  "Name": "Filippiáda",
  "lat": 39.2028,
  "lng": 20.8842,
  "CountryId": 2
 },
 {
  "Id": 425,
  "Name": "Itéa",
  "lat": 38.4329,
  "lng": 22.4261,
  "CountryId": 2
 },
 {
  "Id": 426,
  "Name": "Arkalochóri",
  "lat": 35.15,
  "lng": 25.2667,
  "CountryId": 2
 },
 {
  "Id": 427,
  "Name": "Néa Magnisía",
  "lat": 40.6878,
  "lng": 22.8458,
  "CountryId": 2
 },
 {
  "Id": 428,
  "Name": "Kíssamos",
  "lat": 35.4833,
  "lng": 23.65,
  "CountryId": 2
 },
 {
  "Id": 429,
  "Name": "Vouliagméni",
  "lat": 37.8139,
  "lng": 23.7824,
  "CountryId": 2
 },
 {
  "Id": 430,
  "Name": "Kítsi",
  "lat": 37.8456,
  "lng": 23.8267,
  "CountryId": 2
 },
 {
  "Id": 431,
  "Name": "Schimatári",
  "lat": 38.3464,
  "lng": 23.5811,
  "CountryId": 2
 },
 {
  "Id": 432,
  "Name": "Spétses",
  "lat": 37.2591,
  "lng": 23.1364,
  "CountryId": 2
 },
 {
  "Id": 433,
  "Name": "Katsikás",
  "lat": 39.6228,
  "lng": 20.8875,
  "CountryId": 2
 },
 {
  "Id": 434,
  "Name": "Néa Raidestós",
  "lat": 40.5239,
  "lng": 23.0508,
  "CountryId": 2
 },
 {
  "Id": 435,
  "Name": "Potamós",
  "lat": 39.6239,
  "lng": 19.8792,
  "CountryId": 2
 },
 {
  "Id": 436,
  "Name": "Irákleia",
  "lat": 41.1831,
  "lng": 23.2819,
  "CountryId": 2
 },
 {
  "Id": 437,
  "Name": "Lixoúri",
  "lat": 38.2,
  "lng": 20.4333,
  "CountryId": 2
 },
 {
  "Id": 438,
  "Name": "Stavrós",
  "lat": 40.6642,
  "lng": 23.6961,
  "CountryId": 2
 },
 {
  "Id": 439,
  "Name": "Amýntaio",
  "lat": 40.6897,
  "lng": 21.6797,
  "CountryId": 2
 },
 {
  "Id": 440,
  "Name": "Vartholomió",
  "lat": 37.8622,
  "lng": 21.2058,
  "CountryId": 2
 },
 {
  "Id": 441,
  "Name": "Lagyná",
  "lat": 40.7233,
  "lng": 23.005,
  "CountryId": 2
 },
 {
  "Id": 442,
  "Name": "Néa Péramos",
  "lat": 40.8389,
  "lng": 24.3036,
  "CountryId": 2
 },
 {
  "Id": 443,
  "Name": "Vracháti",
  "lat": 37.9557,
  "lng": 22.8028,
  "CountryId": 2
 },
 {
  "Id": 444,
  "Name": "Thásos",
  "lat": 40.7781,
  "lng": 24.7094,
  "CountryId": 2
 },
 {
  "Id": 445,
  "Name": "Mália",
  "lat": 35.2836,
  "lng": 25.4625,
  "CountryId": 2
 },
 {
  "Id": 446,
  "Name": "Zacháro",
  "lat": 37.4861,
  "lng": 21.6494,
  "CountryId": 2
 },
 {
  "Id": 447,
  "Name": "Kallithéa",
  "lat": 40.275,
  "lng": 22.575,
  "CountryId": 2
 },
 {
  "Id": 448,
  "Name": "Vélo",
  "lat": 37.9757,
  "lng": 22.7605,
  "CountryId": 2
 },
 {
  "Id": 449,
  "Name": "Neápoli",
  "lat": 36.5111,
  "lng": 23.0566,
  "CountryId": 2
 },
 {
  "Id": 450,
  "Name": "Ntráfi",
  "lat": 38.0333,
  "lng": 23.9,
  "CountryId": 2
 },
 {
  "Id": 451,
  "Name": "Maniákoi",
  "lat": 40.5019,
  "lng": 21.2447,
  "CountryId": 2
 },
 {
  "Id": 452,
  "Name": "Liménas Chersonísou",
  "lat": 35.3167,
  "lng": 25.39,
  "CountryId": 2
 },
 {
  "Id": 453,
  "Name": "Néo Rýsi",
  "lat": 40.4961,
  "lng": 22.9881,
  "CountryId": 2
 },
 {
  "Id": 454,
  "Name": "Lefkímmi",
  "lat": 39.4167,
  "lng": 20.0667,
  "CountryId": 2
 },
 {
  "Id": 455,
  "Name": "Saronída",
  "lat": 37.7333,
  "lng": 23.9,
  "CountryId": 2
 },
 {
  "Id": 456,
  "Name": "Néa Kíos",
  "lat": 37.5875,
  "lng": 22.7444,
  "CountryId": 2
 },
 {
  "Id": 457,
  "Name": "Kárpathos",
  "lat": 35.5075,
  "lng": 27.2136,
  "CountryId": 2
 },
 {
  "Id": 458,
  "Name": "Spercheiáda",
  "lat": 38.9082,
  "lng": 22.1271,
  "CountryId": 2
 },
 {
  "Id": 459,
  "Name": "Kanaláki",
  "lat": 39.2325,
  "lng": 20.5986,
  "CountryId": 2
 },
 {
  "Id": 460,
  "Name": "Filiátes",
  "lat": 39.6011,
  "lng": 20.3119,
  "CountryId": 2
 },
 {
  "Id": 461,
  "Name": "Mouzáki",
  "lat": 39.4297,
  "lng": 21.6636,
  "CountryId": 2
 },
 {
  "Id": 462,
  "Name": "Sámos",
  "lat": 37.7475,
  "lng": 26.9825,
  "CountryId": 2
 },
 {
  "Id": 463,
  "Name": "Kréstena",
  "lat": 37.5917,
  "lng": 21.62,
  "CountryId": 2
 },
 {
  "Id": 464,
  "Name": "Firá",
  "lat": 36.42,
  "lng": 25.4317,
  "CountryId": 2
 },
 {
  "Id": 465,
  "Name": "Archaía Olympía",
  "lat": 37.6443,
  "lng": 21.6253,
  "CountryId": 2
 },
 {
  "Id": 466,
  "Name": "Pezá",
  "lat": 35.2178,
  "lng": 25.1928,
  "CountryId": 2
 },
 {
  "Id": 467,
  "Name": "Zákynthos",
  "lat": 37.8,
  "lng": 20.75,
  "CountryId": 2
 },
 {
  "Id": 468,
  "Name": "Ágios Stéfanos",
  "lat": 38.1408,
  "lng": 23.8591,
  "CountryId": 2
 },
 {
  "Id": 469,
  "Name": "Náxos",
  "lat": 37.1021,
  "lng": 25.378,
  "CountryId": 2
 },
 {
  "Id": 470,
  "Name": "Zevgolatió",
  "lat": 38.0815,
  "lng": 22.6193,
  "CountryId": 2
 },
 {
  "Id": 471,
  "Name": "Moíres",
  "lat": 35.0517,
  "lng": 24.875,
  "CountryId": 2
 },
 {
  "Id": 472,
  "Name": "Pérama",
  "lat": 35.3695,
  "lng": 24.7039,
  "CountryId": 2
 },
 {
  "Id": 473,
  "Name": "Igoumenítsa",
  "lat": 39.5034,
  "lng": 20.2673,
  "CountryId": 2
 },
 {
  "Id": 474,
  "Name": "Goúrnes",
  "lat": 35.3248,
  "lng": 25.2776,
  "CountryId": 2
 },
 {
  "Id": 475,
  "Name": "Gastoúni",
  "lat": 37.8506,
  "lng": 21.2534,
  "CountryId": 2
 },
 {
  "Id": 476,
  "Name": "Eleoúsa",
  "lat": 39.7059,
  "lng": 20.7928,
  "CountryId": 2
 },
 {
  "Id": 477,
  "Name": "Árgos Orestikó",
  "lat": 40.4525,
  "lng": 21.2592,
  "CountryId": 2
 },
 {
  "Id": 478,
  "Name": "Markópoulo",
  "lat": 37.8833,
  "lng": 23.9333,
  "CountryId": 2
 },
 {
  "Id": 479,
  "Name": "Geráni",
  "lat": 35.5168,
  "lng": 23.878,
  "CountryId": 2
 },
 {
  "Id": 480,
  "Name": "Ándros",
  "lat": 37.8362,
  "lng": 24.9352,
  "CountryId": 2
 },
 {
  "Id": 481,
  "Name": "Stylída",
  "lat": 38.9144,
  "lng": 22.6138,
  "CountryId": 2
 }
]